header: 
  seq: 1293
  stamp: 
    secs: 1696482701
    nsecs: 276000000
  frame_id: "ObjectInfo"
num_of_npcs: 4
num_of_pedestrian: 0
num_of_obstacle: 0
npc_list: 
  - 
    unique_id: 70
    type: 1
    name: "2017_Kia_Niro(HEV)"
    heading: -87.95726776123047
    velocity: 
      x: 55.4019889831543
      y: 0.04582279920578003
      z: 0.3009715974330902
    acceleration: 
      x: 0.448291540145874
      y: 0.11443880945444107
      z: -0.026756417006254196
    size: 
      x: 4.355000019073486
      y: 1.8049999475479126
      z: 1.5449999570846558
    position: 
      x: 204.51416015625
      y: 1763.8883056640625
      z: -0.2086247056722641
  - 
    unique_id: 25
    type: 1
    name: "2017_Kia_Niro(HEV)"
    heading: -88.2022933959961
    velocity: 
      x: 56.16984939575195
      y: -0.004593908786773682
      z: 0.3205709159374237
    acceleration: 
      x: 0.20474834740161896
      y: -0.010622350499033928
      z: 0.023523183539509773
    size: 
      x: 4.355000019073486
      y: 1.8049999475479126
      z: 1.5449999570846558
    position: 
      x: 200.86676025390625
      y: 1736.8355712890625
      z: -0.20152094960212708
  - 
    unique_id: 35
    type: 1
    name: "2017_Kia_Niro(HEV)"
    heading: -88.50389862060547
    velocity: 
      x: 50.06268310546875
      y: 0.01609399914741516
      z: 0.25984901189804077
    acceleration: 
      x: 0.8528996706008911
      y: 0.08242464065551758
      z: 0.010955656878650188
    size: 
      x: 4.355000019073486
      y: 1.8049999475479126
      z: 1.5449999570846558
    position: 
      x: 208.4452362060547
      y: 1732.64404296875
      z: -0.17988352477550507
  - 
    unique_id: 31
    type: 1
    name: "2017_Kia_Niro(HEV)"
    heading: -88.25212860107422
    velocity: 
      x: 57.371219635009766
      y: 0.001276642084121704
      z: 0.32348230481147766
    acceleration: 
      x: 0.31791847944259644
      y: 0.009848912246525288
      z: 0.025789469480514526
    size: 
      x: 4.355000019073486
      y: 1.8049999475479126
      z: 1.5449999570846558
    position: 
      x: 211.94720458984375
      y: 1679.4954833984375
      z: -0.12547531723976135
pedestrian_list: []
obstacle_list: []
---
header: 
  seq: 1294
  stamp: 
    secs: 1696482701
    nsecs: 295000000
  frame_id: "ObjectInfo"
num_of_npcs: 4
num_of_pedestrian: 0
num_of_obstacle: 0
npc_list: 
  - 
    unique_id: 70
    type: 1
    name: "2017_Kia_Niro(HEV)"
    heading: -87.94319915771484
    velocity: 
      x: 55.43375778198242
      y: 0.03777354955673218
      z: 0.3031284809112549
    acceleration: 
      x: 0.44485270977020264
      y: 0.15007293224334717
      z: -0.018281864002346992
    size: 
      x: 4.355000019073486
      y: 1.8049999475479126
      z: 1.5449999570846558
    position: 
      x: 204.51821899414062
      y: 1763.545654296875
      z: -0.20835930109024048
  - 
    unique_id: 25
    type: 1
    name: "2017_Kia_Niro(HEV)"
    heading: -88.20238494873047
    velocity: 
      x: 56.18438720703125
      y: -0.005463987588882446
      z: 0.3204224705696106
    acceleration: 
      x: 0.20334580540657043
      y: -0.001980565721169114
      z: 0.02209651656448841
    size: 
      x: 4.355000019073486
      y: 1.8049999475479126
      z: 1.5449999570846558
    position: 
      x: 200.86944580078125
      y: 1736.48828125
      z: -0.20137134194374084
  - 
    unique_id: 35
    type: 1
    name: "2017_Kia_Niro(HEV)"
    heading: -88.49776458740234
    velocity: 
      x: 50.12419128417969
      y: 0.017923161387443542
      z: 0.2605093717575073
    acceleration: 
      x: 0.8537749648094177
      y: 0.0770997554063797
      z: 0.016508406028151512
    size: 
      x: 4.355000019073486
      y: 1.8049999475479126
      z: 1.5449999570846558
    position: 
      x: 208.44598388671875
      y: 1732.33447265625
      z: -0.17966029047966003
  - 
    unique_id: 31
    type: 1
    name: "2017_Kia_Niro(HEV)"
    heading: -88.25237274169922
    velocity: 
      x: 57.39385986328125
      y: 0.0006453990936279297
      z: 0.3236371874809265
    acceleration: 
      x: 0.3157072365283966
      y: -0.0024012208450585604
      z: 0.0320056788623333
    size: 
      x: 4.355000019073486
      y: 1.8049999475479126
      z: 1.5449999570846558
    position: 
      x: 211.94970703125
      y: 1679.140869140625
      z: -0.125105082988739
pedestrian_list: []
obstacle_list: []
---
header: 
  seq: 1295
  stamp: 
    secs: 1696482701
    nsecs: 312000000
  frame_id: "ObjectInfo"
num_of_npcs: 4
num_of_pedestrian: 0
num_of_obstacle: 0
npc_list: 
  - 
    unique_id: 70
    type: 1
    name: "2017_Kia_Niro(HEV)"
    heading: -87.93196868896484
    velocity: 
      x: 55.465309143066406
      y: 0.031983137130737305
      z: 0.30498170852661133
    acceleration: 
      x: 0.44142410159111023
      y: 0.07709291577339172
      z: -0.013097062706947327
    size: 
      x: 4.355000019073486
      y: 1.8049999475479126
      z: 1.5449999570846558
    position: 
      x: 204.52206420898438
      y: 1763.2266845703125
      z: -0.20813265442848206
  - 
    unique_id: 25
    type: 1
    name: "2017_Kia_Niro(HEV)"
    heading: -88.2027816772461
    velocity: 
      x: 56.19880676269531
      y: -0.0065225958824157715
      z: 0.3204716444015503
    acceleration: 
      x: 0.20178073644638062
      y: -0.013306569308042526
      z: 0.021832499653100967
    size: 
      x: 4.355000019073486
      y: 1.8049999475479126
      z: 1.5449999570846558
    position: 
      x: 200.8719482421875
      y: 1736.1650390625
      z: -0.2012222707271576
  - 
    unique_id: 35
    type: 1
    name: "2017_Kia_Niro(HEV)"
    heading: -88.49156951904297
    velocity: 
      x: 50.18582534790039
      y: 0.019032597541809082
      z: 0.2613537311553955
    acceleration: 
      x: 0.8542218208312988
      y: 0.09959079325199127
      z: 0.017442360520362854
    size: 
      x: 4.355000019073486
      y: 1.8049999475479126
      z: 1.5449999570846558
    position: 
      x: 208.44671630859375
      y: 1732.0457763671875
      z: -0.1794445514678955
  - 
    unique_id: 31
    type: 1
    name: "2017_Kia_Niro(HEV)"
    heading: -88.25264739990234
    velocity: 
      x: 57.41638946533203
      y: 0.00029546022415161133
      z: 0.3223729729652405
    acceleration: 
      x: 0.3143633008003235
      y: -0.012061272747814655
      z: 0.019006185233592987
    size: 
      x: 4.355000019073486
      y: 1.8049999475479126
      z: 1.5449999570846558
    position: 
      x: 211.9520263671875
      y: 1678.8104248046875
      z: -0.12475995719432831
pedestrian_list: []
obstacle_list: []
---
header: 
  seq: 1296
  stamp: 
    secs: 1696482701
    nsecs: 329000000
  frame_id: "ObjectInfo"
num_of_npcs: 4
num_of_pedestrian: 0
num_of_obstacle: 0
npc_list: 
  - 
    unique_id: 70
    type: 1
    name: "2017_Kia_Niro(HEV)"
    heading: -87.92406463623047
    velocity: 
      x: 55.49660110473633
      y: 0.029515326023101807
      z: 0.30595725774765015
    acceleration: 
      x: 0.4382741153240204
      y: 0.0705561488866806
      z: -0.007026673294603825
    size: 
      x: 4.355000019073486
      y: 1.8049999475479126
      z: 1.5449999570846558
    position: 
      x: 204.52520751953125
      y: 1762.97119140625
      z: -0.20796853303909302
  - 
    unique_id: 25
    type: 1
    name: "2017_Kia_Niro(HEV)"
    heading: -88.20330047607422
    velocity: 
      x: 56.213134765625
      y: -0.007244110107421875
      z: 0.32060229778289795
    acceleration: 
      x: 0.2001497596502304
      y: -0.02011105790734291
      z: 0.022764265537261963
    size: 
      x: 4.355000019073486
      y: 1.8049999475479126
      z: 1.5449999570846558
    position: 
      x: 200.8739776611328
      y: 1735.90625
      z: -0.2010962963104248
  - 
    unique_id: 35
    type: 1
    name: "2017_Kia_Niro(HEV)"
    heading: -88.48628997802734
    velocity: 
      x: 50.24755859375
      y: 0.021383240818977356
      z: 0.2621370553970337
    acceleration: 
      x: 0.8560134768486023
      y: 0.09062518924474716
      z: 0.018798531964421272
    size: 
      x: 4.355000019073486
      y: 1.8049999475479126
      z: 1.5449999570846558
    position: 
      x: 208.44732666015625
      y: 1731.8145751953125
      z: -0.17926636338233948
  - 
    unique_id: 31
    type: 1
    name: "2017_Kia_Niro(HEV)"
    heading: -88.25289154052734
    velocity: 
      x: 57.43879699707031
      y: -0.0005908310413360596
      z: 0.3200237452983856
    acceleration: 
      x: 0.3128051459789276
      y: -0.008829738013446331
      z: -0.0007250183261930943
    size: 
      x: 4.355000019073486
      y: 1.8049999475479126
      z: 1.5449999570846558
    position: 
      x: 211.95388793945312
      y: 1678.546142578125
      z: -0.12449295073747635
pedestrian_list: []
obstacle_list: []
---
header: 
  seq: 1297
  stamp: 
    secs: 1696482701
    nsecs: 343000000
  frame_id: "ObjectInfo"
num_of_npcs: 4
num_of_pedestrian: 0
num_of_obstacle: 0
npc_list: 
  - 
    unique_id: 70
    type: 1
    name: "2017_Kia_Niro(HEV)"
    heading: -87.9168930053711
    velocity: 
      x: 55.52765655517578
      y: 0.02466428279876709
      z: 0.3067874014377594
    acceleration: 
      x: 0.4346732199192047
      y: 0.07199262082576752
      z: -0.005613188724964857
    size: 
      x: 4.355000019073486
      y: 1.8049999475479126
      z: 1.5449999570846558
    position: 
      x: 204.52845764160156
      y: 1762.710693359375
      z: -0.20781731605529785
  - 
    unique_id: 25
    type: 1
    name: "2017_Kia_Niro(HEV)"
    heading: -88.2040023803711
    velocity: 
      x: 56.22737121582031
      y: -0.008606940507888794
      z: 0.3203222155570984
    acceleration: 
      x: 0.1988581418991089
      y: -0.016905630007386208
      z: 0.01927516981959343
    size: 
      x: 4.355000019073486
      y: 1.8049999475479126
      z: 1.5449999570846558
    position: 
      x: 200.8760223388672
      y: 1735.642333984375
      z: -0.20096240937709808
  - 
    unique_id: 35
    type: 1
    name: "2017_Kia_Niro(HEV)"
    heading: -88.48070526123047
    velocity: 
      x: 50.30929183959961
      y: 0.023015841841697693
      z: 0.26293155550956726
    acceleration: 
      x: 0.8572943806648254
      y: 0.09673593193292618
      z: 0.015993356704711914
    size: 
      x: 4.355000019073486
      y: 1.8049999475479126
      z: 1.5449999570846558
    position: 
      x: 208.44796752929688
      y: 1731.57861328125
      z: -0.17908188700675964
  - 
    unique_id: 31
    type: 1
    name: "2017_Kia_Niro(HEV)"
    heading: -88.2531967163086
    velocity: 
      x: 57.4609489440918
      y: -0.001864403486251831
      z: 0.31933605670928955
    acceleration: 
      x: 0.31115666031837463
      y: -0.01580888032913208
      z: -0.016352113336324692
    size: 
      x: 4.355000019073486
      y: 1.8049999475479126
      z: 1.5449999570846558
    position: 
      x: 211.95574951171875
      y: 1678.2763671875
      z: -0.12422449886798859
pedestrian_list: []
obstacle_list: []
---
header: 
  seq: 1298
  stamp: 
    secs: 1696482701
    nsecs: 376000000
  frame_id: "ObjectInfo"
num_of_npcs: 4
num_of_pedestrian: 0
num_of_obstacle: 0
npc_list: 
  - 
    unique_id: 70
    type: 1
    name: "2017_Kia_Niro(HEV)"
    heading: -87.90853118896484
    velocity: 
      x: 55.558441162109375
      y: 0.020929574966430664
      z: 0.3075260519981384
    acceleration: 
      x: 0.4313410520553589
      y: 0.029158076271414757
      z: -0.0010280923452228308
    size: 
      x: 4.355000019073486
      y: 1.8049999475479126
      z: 1.5449999570846558
    position: 
      x: 204.532958984375
      y: 1762.354248046875
      z: -0.20763751864433289
  - 
    unique_id: 25
    type: 1
    name: "2017_Kia_Niro(HEV)"
    heading: -88.20528411865234
    velocity: 
      x: 56.24146270751953
      y: -0.009857892990112305
      z: 0.3200405538082123
    acceleration: 
      x: 0.19760911166667938
      y: -0.028177758678793907
      z: 0.013285432010889053
    size: 
      x: 4.355000019073486
      y: 1.8049999475479126
      z: 1.5449999570846558
    position: 
      x: 200.87881469726562
      y: 1735.28125
      z: -0.2007676213979721
  - 
    unique_id: 35
    type: 1
    name: "2017_Kia_Niro(HEV)"
    heading: -88.47270965576172
    velocity: 
      x: 50.37103271484375
      y: 0.02314695715904236
      z: 0.26320868730545044
    acceleration: 
      x: 0.8574288487434387
      y: 0.09078717231750488
      z: 0.0164962038397789
    size: 
      x: 4.355000019073486
      y: 1.8049999475479126
      z: 1.5449999570846558
    position: 
      x: 208.44888305664062
      y: 1731.255615234375
      z: -0.17882975935935974
  - 
    unique_id: 31
    type: 1
    name: "2017_Kia_Niro(HEV)"
    heading: -88.25383758544922
    velocity: 
      x: 57.48298263549805
      y: -0.0016623735427856445
      z: 0.31869179010391235
    acceleration: 
      x: 0.3075719475746155
      y: -0.022122245281934738
      z: 0.007973311468958855
    size: 
      x: 4.355000019073486
      y: 1.8049999475479126
      z: 1.5449999570846558
    position: 
      x: 211.95834350585938
      y: 1677.9075927734375
      z: -0.12384514510631561
pedestrian_list: []
obstacle_list: []
---
header: 
  seq: 1299
  stamp: 
    secs: 1696482701
    nsecs: 392000000
  frame_id: "ObjectInfo"
num_of_npcs: 4
num_of_pedestrian: 0
num_of_obstacle: 0
npc_list: 
  - 
    unique_id: 70
    type: 1
    name: "2017_Kia_Niro(HEV)"
    heading: -87.90169525146484
    velocity: 
      x: 55.58898162841797
      y: 0.015582799911499023
      z: 0.3079051375389099
    acceleration: 
      x: 0.4275709092617035
      y: 0.06062448024749756
      z: 0.00595160573720932
    size: 
      x: 4.355000019073486
      y: 1.8049999475479126
      z: 1.5449999570846558
    position: 
      x: 204.537353515625
      y: 1762.0107421875
      z: -0.20748716592788696
  - 
    unique_id: 25
    type: 1
    name: "2017_Kia_Niro(HEV)"
    heading: -88.20687103271484
    velocity: 
      x: 56.2554817199707
      y: -0.009907901287078857
      z: 0.32007497549057007
    acceleration: 
      x: 0.19567754864692688
      y: -0.03506036102771759
      z: 0.01709512062370777
    size: 
      x: 4.355000019073486
      y: 1.8049999475479126
      z: 1.5449999570846558
    position: 
      x: 200.88150024414062
      y: 1734.9337158203125
      z: -0.20056352019309998
  - 
    unique_id: 35
    type: 1
    name: "2017_Kia_Niro(HEV)"
    heading: -88.46471405029297
    velocity: 
      x: 50.43269729614258
      y: 0.02286553382873535
      z: 0.26336705684661865
    acceleration: 
      x: 0.8573836088180542
      y: 0.09914657473564148
      z: 0.013835713267326355
    size: 
      x: 4.355000019073486
      y: 1.8049999475479126
      z: 1.5449999570846558
    position: 
      x: 208.44979858398438
      y: 1730.944091796875
      z: -0.17858761548995972
  - 
    unique_id: 31
    type: 1
    name: "2017_Kia_Niro(HEV)"
    heading: -88.25457000732422
    velocity: 
      x: 57.5048713684082
      y: -0.0012758374214172363
      z: 0.31873801350593567
    acceleration: 
      x: 0.3058602511882782
      y: -0.0059590088203549385
      z: 0.010797491297125816
    size: 
      x: 4.355000019073486
      y: 1.8049999475479126
      z: 1.5449999570846558
    position: 
      x: 211.9608154296875
      y: 1677.55224609375
      z: -0.12345615029335022
pedestrian_list: []
obstacle_list: []
---
header: 
  seq: 1300
  stamp: 
    secs: 1696482701
    nsecs: 412000000
  frame_id: "ObjectInfo"
num_of_npcs: 4
num_of_pedestrian: 0
num_of_obstacle: 0
npc_list: 
  - 
    unique_id: 70
    type: 1
    name: "2017_Kia_Niro(HEV)"
    heading: -87.89757537841797
    velocity: 
      x: 55.61929702758789
      y: 0.01087939739227295
      z: 0.30839478969573975
    acceleration: 
      x: 0.4240671992301941
      y: 0.017890164628624916
      z: 0.013863630592823029
    size: 
      x: 4.355000019073486
      y: 1.8049999475479126
      z: 1.5449999570846558
    position: 
      x: 204.54074096679688
      y: 1761.749755859375
      z: -0.20738263428211212
  - 
    unique_id: 25
    type: 1
    name: "2017_Kia_Niro(HEV)"
    heading: -88.20824432373047
    velocity: 
      x: 56.269386291503906
      y: -0.0111541748046875
      z: 0.3199334442615509
    acceleration: 
      x: 0.1945900321006775
      y: -0.02207724004983902
      z: 0.01651766523718834
    size: 
      x: 4.355000019073486
      y: 1.8049999475479126
      z: 1.5449999570846558
    position: 
      x: 200.88351440429688
      y: 1734.669677734375
      z: -0.20040002465248108
  - 
    unique_id: 35
    type: 1
    name: "2017_Kia_Niro(HEV)"
    heading: -88.45848846435547
    velocity: 
      x: 50.49440383911133
      y: 0.024797171354293823
      z: 0.26420947909355164
    acceleration: 
      x: 0.8563742637634277
      y: 0.09352771937847137
      z: 0.014375456608831882
    size: 
      x: 4.355000019073486
      y: 1.8049999475479126
      z: 1.5449999570846558
    position: 
      x: 208.45050048828125
      y: 1730.707275390625
      z: -0.17840248346328735
  - 
    unique_id: 31
    type: 1
    name: "2017_Kia_Niro(HEV)"
    heading: -88.2552719116211
    velocity: 
      x: 57.52676773071289
      y: -0.001755744218826294
      z: 0.31851425766944885
    acceleration: 
      x: 0.30400896072387695
      y: -0.005145352333784103
      z: 0.010184002108871937
    size: 
      x: 4.355000019073486
      y: 1.8049999475479126
      z: 1.5449999570846558
    position: 
      x: 211.96270751953125
      y: 1677.2822265625
      z: -0.12314342707395554
pedestrian_list: []
obstacle_list: []
---
header: 
  seq: 1301
  stamp: 
    secs: 1696482701
    nsecs: 426000000
  frame_id: "ObjectInfo"
num_of_npcs: 4
num_of_pedestrian: 0
num_of_obstacle: 0
npc_list: 
  - 
    unique_id: 70
    type: 1
    name: "2017_Kia_Niro(HEV)"
    heading: -87.89360809326172
    velocity: 
      x: 55.64937210083008
      y: 0.008501410484313965
      z: 0.30881011486053467
    acceleration: 
      x: 0.4209508001804352
      y: -0.009925616905093193
      z: 0.02038552239537239
    size: 
      x: 4.355000019073486
      y: 1.8049999475479126
      z: 1.5449999570846558
    position: 
      x: 204.54501342773438
      y: 1761.421142578125
      z: -0.20725464820861816
  - 
    unique_id: 25
    type: 1
    name: "2017_Kia_Niro(HEV)"
    heading: -88.21019744873047
    velocity: 
      x: 56.2832145690918
      y: -0.011551380157470703
      z: 0.3199789822101593
    acceleration: 
      x: 0.1930963099002838
      y: -0.035975854843854904
      z: 0.007869281806051731
    size: 
      x: 4.355000019073486
      y: 1.8049999475479126
      z: 1.5449999570846558
    position: 
      x: 200.88607788085938
      y: 1734.337158203125
      z: -0.2001849114894867
  - 
    unique_id: 35
    type: 1
    name: "2017_Kia_Niro(HEV)"
    heading: -88.45040130615234
    velocity: 
      x: 50.556156158447266
      y: 0.025758951902389526
      z: 0.2642826437950134
    acceleration: 
      x: 0.8569560050964355
      y: 0.10286134481430054
      z: 0.022569643333554268
    size: 
      x: 4.355000019073486
      y: 1.8049999475479126
      z: 1.5449999570846558
    position: 
      x: 208.45144653320312
      y: 1730.40869140625
      z: -0.1781679391860962
  - 
    unique_id: 31
    type: 1
    name: "2017_Kia_Niro(HEV)"
    heading: -88.25630950927734
    velocity: 
      x: 57.54859161376953
      y: -0.0014937818050384521
      z: 0.3173655867576599
    acceleration: 
      x: 0.3040907680988312
      y: -0.016206011176109314
      z: -0.004192380700260401
    size: 
      x: 4.355000019073486
      y: 1.8049999475479126
      z: 1.5449999570846558
    position: 
      x: 211.965087890625
      y: 1676.9423828125
      z: -0.12273441255092621
pedestrian_list: []
obstacle_list: []
---
header: 
  seq: 1302
  stamp: 
    secs: 1696482701
    nsecs: 443000000
  frame_id: "ObjectInfo"
num_of_npcs: 4
num_of_pedestrian: 0
num_of_obstacle: 0
npc_list: 
  - 
    unique_id: 70
    type: 1
    name: "2017_Kia_Niro(HEV)"
    heading: -87.89171600341797
    velocity: 
      x: 55.67922592163086
      y: 0.0053258538246154785
      z: 0.31001222133636475
    acceleration: 
      x: 0.4175446927547455
      y: 0.020554959774017334
      z: 0.029028402641415596
    size: 
      x: 4.355000019073486
      y: 1.8049999475479126
      z: 1.5449999570846558
    position: 
      x: 204.54750061035156
      y: 1761.230712890625
      z: -0.207179456949234
  - 
    unique_id: 25
    type: 1
    name: "2017_Kia_Niro(HEV)"
    heading: -88.21141815185547
    velocity: 
      x: 56.296939849853516
      y: -0.01311519742012024
      z: 0.31979668140411377
    acceleration: 
      x: 0.19197139143943787
      y: -0.03214675188064575
      z: 0.010091622360050678
    size: 
      x: 4.355000019073486
      y: 1.8049999475479126
      z: 1.5449999570846558
    position: 
      x: 200.88755798339844
      y: 1734.1446533203125
      z: -0.2000558078289032
  - 
    unique_id: 35
    type: 1
    name: "2017_Kia_Niro(HEV)"
    heading: -88.4455795288086
    velocity: 
      x: 50.61786651611328
      y: 0.028930768370628357
      z: 0.26483431458473206
    acceleration: 
      x: 0.8575537800788879
      y: 0.11244117468595505
      z: 0.016976788640022278
    size: 
      x: 4.355000019073486
      y: 1.8049999475479126
      z: 1.5449999570846558
    position: 
      x: 208.45201110839844
      y: 1730.235595703125
      z: -0.17803187668323517
  - 
    unique_id: 31
    type: 1
    name: "2017_Kia_Niro(HEV)"
    heading: -88.2569808959961
    velocity: 
      x: 57.57026672363281
      y: -0.0027945637702941895
      z: 0.3164176940917969
    acceleration: 
      x: 0.3031861186027527
      y: -0.010784273967146873
      z: -0.02836287021636963
    size: 
      x: 4.355000019073486
      y: 1.8049999475479126
      z: 1.5449999570846558
    position: 
      x: 211.96644592285156
      y: 1676.745361328125
      z: -0.12249316275119781
pedestrian_list: []
obstacle_list: []
---
header: 
  seq: 1303
  stamp: 
    secs: 1696482701
    nsecs: 476000000
  frame_id: "ObjectInfo"
num_of_npcs: 4
num_of_pedestrian: 0
num_of_obstacle: 0
npc_list: 
  - 
    unique_id: 70
    type: 1
    name: "2017_Kia_Niro(HEV)"
    heading: -87.88903045654297
    velocity: 
      x: 55.7088623046875
      y: 0.0010704994201660156
      z: 0.30941250920295715
    acceleration: 
      x: 0.4146314263343811
      y: -0.018250759690999985
      z: 0.031978387385606766
    size: 
      x: 4.355000019073486
      y: 1.8049999475479126
      z: 1.5449999570846558
    position: 
      x: 204.55322265625
      y: 1760.79638671875
      z: -0.20699849724769592
  - 
    unique_id: 25
    type: 1
    name: "2017_Kia_Niro(HEV)"
    heading: -88.21468353271484
    velocity: 
      x: 56.310546875
      y: -0.013411372900009155
      z: 0.3196667730808258
    acceleration: 
      x: 0.1905859112739563
      y: -0.03836467117071152
      z: 0.0013309253845363855
    size: 
      x: 4.355000019073486
      y: 1.8049999475479126
      z: 1.5449999570846558
    position: 
      x: 200.8909149169922
      y: 1733.705322265625
      z: -0.19975027441978455
  - 
    unique_id: 35
    type: 1
    name: "2017_Kia_Niro(HEV)"
    heading: -88.43428802490234
    velocity: 
      x: 50.67953872680664
      y: 0.027175605297088623
      z: 0.26464366912841797
    acceleration: 
      x: 0.8570061326026917
      y: 0.10281211882829666
      z: 0.017825234681367874
    size: 
      x: 4.355000019073486
      y: 1.8049999475479126
      z: 1.5449999570846558
    position: 
      x: 208.453369140625
      y: 1729.840576171875
      z: -0.17771917581558228
  - 
    unique_id: 31
    type: 1
    name: "2017_Kia_Niro(HEV)"
    heading: -88.25890350341797
    velocity: 
      x: 57.591861724853516
      y: -0.002774834632873535
      z: 0.3166756331920624
    acceleration: 
      x: 0.3011503517627716
      y: -0.027463875710964203
      z: -0.02505248226225376
    size: 
      x: 4.355000019073486
      y: 1.8049999475479126
      z: 1.5449999570846558
    position: 
      x: 211.96957397460938
      y: 1676.296142578125
      z: -0.12193670868873596
pedestrian_list: []
obstacle_list: []
---
header: 
  seq: 1304
  stamp: 
    secs: 1696482701
    nsecs: 496000000
  frame_id: "ObjectInfo"
num_of_npcs: 4
num_of_pedestrian: 0
num_of_obstacle: 0
npc_list: 
  - 
    unique_id: 70
    type: 1
    name: "2017_Kia_Niro(HEV)"
    heading: -87.88802337646484
    velocity: 
      x: 55.738304138183594
      y: -0.0007627010345458984
      z: 0.3095588982105255
    acceleration: 
      x: 0.41133370995521545
      y: -0.022565191611647606
      z: 0.031641267240047455
    size: 
      x: 4.355000019073486
      y: 1.8049999475479126
      z: 1.5449999570846558
    position: 
      x: 204.55764770507812
      y: 1760.4619140625
      z: -0.20684848725795746
  - 
    unique_id: 25
    type: 1
    name: "2017_Kia_Niro(HEV)"
    heading: -88.21752166748047
    velocity: 
      x: 56.324058532714844
      y: -0.013959556818008423
      z: 0.3198515772819519
    acceleration: 
      x: 0.18898352980613708
      y: -0.04835660010576248
      z: 0.0017526054289191961
    size: 
      x: 4.355000019073486
      y: 1.8049999475479126
      z: 1.5449999570846558
    position: 
      x: 200.89346313476562
      y: 1733.3671875
      z: -0.19950763881206512
  - 
    unique_id: 35
    type: 1
    name: "2017_Kia_Niro(HEV)"
    heading: -88.4253158569336
    velocity: 
      x: 50.741172790527344
      y: 0.026941686868667603
      z: 0.26533958315849304
    acceleration: 
      x: 0.8563710451126099
      y: 0.11429138481616974
      z: 0.024302123114466667
    size: 
      x: 4.355000019073486
      y: 1.8049999475479126
      z: 1.5449999570846558
    position: 
      x: 208.4544677734375
      y: 1729.5361328125
      z: -0.17746981978416443
  - 
    unique_id: 31
    type: 1
    name: "2017_Kia_Niro(HEV)"
    heading: -88.26058197021484
    velocity: 
      x: 57.61323165893555
      y: -0.0032860636711120605
      z: 0.3178440034389496
    acceleration: 
      x: 0.30006787180900574
      y: -0.026236852630972862
      z: -0.036610472947359085
    size: 
      x: 4.355000019073486
      y: 1.8049999475479126
      z: 1.5449999570846558
    position: 
      x: 211.97198486328125
      y: 1675.950439453125
      z: -0.12151508033275604
pedestrian_list: []
obstacle_list: []
---
header: 
  seq: 1305
  stamp: 
    secs: 1696482701
    nsecs: 509000000
  frame_id: "ObjectInfo"
num_of_npcs: 4
num_of_pedestrian: 0
num_of_obstacle: 0
npc_list: 
  - 
    unique_id: 70
    type: 1
    name: "2017_Kia_Niro(HEV)"
    heading: -87.88790130615234
    velocity: 
      x: 55.76751708984375
      y: -0.004031002521514893
      z: 0.30952170491218567
    acceleration: 
      x: 0.40873995423316956
      y: -0.011946317739784718
      z: 0.03534647077322006
    size: 
      x: 4.355000019073486
      y: 1.8049999475479126
      z: 1.5449999570846558
    position: 
      x: 204.5619659423828
      y: 1760.1363525390625
      z: -0.20668929815292358
  - 
    unique_id: 25
    type: 1
    name: "2017_Kia_Niro(HEV)"
    heading: -88.22054290771484
    velocity: 
      x: 56.337467193603516
      y: -0.014877676963806152
      z: 0.3198525309562683
    acceleration: 
      x: 0.1876179724931717
      y: -0.046304840594530106
      z: 0.0018317552749067545
    size: 
      x: 4.355000019073486
      y: 1.8049999475479126
      z: 1.5449999570846558
    position: 
      x: 200.8959503173828
      y: 1733.0384521484375
      z: -0.19926726818084717
  - 
    unique_id: 35
    type: 1
    name: "2017_Kia_Niro(HEV)"
    heading: -88.41646575927734
    velocity: 
      x: 50.80287551879883
      y: 0.02649916708469391
      z: 0.26511192321777344
    acceleration: 
      x: 0.8558967113494873
      y: 0.10675379633903503
      z: 0.03206612169742584
    size: 
      x: 4.355000019073486
      y: 1.8049999475479126
      z: 1.5449999570846558
    position: 
      x: 208.45556640625
      y: 1729.23974609375
      z: -0.17721877992153168
  - 
    unique_id: 31
    type: 1
    name: "2017_Kia_Niro(HEV)"
    heading: -88.26241302490234
    velocity: 
      x: 57.634437561035156
      y: -0.004643797874450684
      z: 0.3191310465335846
    acceleration: 
      x: 0.297006219625473
      y: -0.030317122116684914
      z: -0.01903892308473587
    size: 
      x: 4.355000019073486
      y: 1.8049999475479126
      z: 1.5449999570846558
    position: 
      x: 211.97430419921875
      y: 1675.614013671875
      z: -0.12111559510231018
pedestrian_list: []
obstacle_list: []
---
header: 
  seq: 1306
  stamp: 
    secs: 1696482701
    nsecs: 527000000
  frame_id: "ObjectInfo"
num_of_npcs: 4
num_of_pedestrian: 0
num_of_obstacle: 0
npc_list: 
  - 
    unique_id: 70
    type: 1
    name: "2017_Kia_Niro(HEV)"
    heading: -87.88811492919922
    velocity: 
      x: 55.79652404785156
      y: -0.00542604923248291
      z: 0.31060412526130676
    acceleration: 
      x: 0.4055708050727844
      y: -0.04339921846985817
      z: 0.03230778127908707
    size: 
      x: 4.355000019073486
      y: 1.8049999475479126
      z: 1.5449999570846558
    position: 
      x: 204.5643768310547
      y: 1759.955322265625
      z: -0.2065948098897934
  - 
    unique_id: 25
    type: 1
    name: "2017_Kia_Niro(HEV)"
    heading: -88.2223129272461
    velocity: 
      x: 56.34537124633789
      y: -0.016774386167526245
      z: 0.3193475008010864
    acceleration: 
      x: 0.18630144000053406
      y: -0.0539153516292572
      z: -0.003321165218949318
    size: 
      x: 4.355000019073486
      y: 1.8049999475479126
      z: 1.5449999570846558
    position: 
      x: 200.8973388671875
      y: 1732.85546875
      z: -0.1991308033466339
  - 
    unique_id: 35
    type: 1
    name: "2017_Kia_Niro(HEV)"
    heading: -88.41149139404297
    velocity: 
      x: 50.864498138427734
      y: 0.030029594898223877
      z: 0.26561421155929565
    acceleration: 
      x: 0.8567621111869812
      y: 0.10268129408359528
      z: 0.019034603610634804
    size: 
      x: 4.355000019073486
      y: 1.8049999475479126
      z: 1.5449999570846558
    position: 
      x: 208.4562225341797
      y: 1729.07470703125
      z: -0.17707675695419312
  - 
    unique_id: 31
    type: 1
    name: "2017_Kia_Niro(HEV)"
    heading: -88.26348114013672
    velocity: 
      x: 57.6555290222168
      y: -0.005799621343612671
      z: 0.3191753029823303
    acceleration: 
      x: 0.2947489321231842
      y: -0.04441365972161293
      z: -0.01525170262902975
    size: 
      x: 4.355000019073486
      y: 1.8049999475479126
      z: 1.5449999570846558
    position: 
      x: 211.97557067871094
      y: 1675.4268798828125
      z: -0.12089470028877258
pedestrian_list: []
obstacle_list: []
---
header: 
  seq: 1307
  stamp: 
    secs: 1696482701
    nsecs: 544000000
  frame_id: "ObjectInfo"
num_of_npcs: 4
num_of_pedestrian: 0
num_of_obstacle: 0
npc_list: 
  - 
    unique_id: 70
    type: 1
    name: "2017_Kia_Niro(HEV)"
    heading: -87.88899993896484
    velocity: 
      x: 55.82532501220703
      y: -0.009434223175048828
      z: 0.31066951155662537
    acceleration: 
      x: 0.40279752016067505
      y: -0.022304700687527657
      z: 0.03310564160346985
    size: 
      x: 4.355000019073486
      y: 1.8049999475479126
      z: 1.5449999570846558
    position: 
      x: 204.5684814453125
      y: 1759.6455078125
      z: -0.20642119646072388
  - 
    unique_id: 25
    type: 1
    name: "2017_Kia_Niro(HEV)"
    heading: -88.22545623779297
    velocity: 
      x: 56.32726287841797
      y: -0.01757580041885376
      z: 0.3199116289615631
    acceleration: 
      x: 0.10978389531373978
      y: -0.05062539130449295
      z: -0.010931737720966339
    size: 
      x: 4.355000019073486
      y: 1.8049999475479126
      z: 1.5449999570846558
    position: 
      x: 200.899658203125
      y: 1732.542724609375
      z: -0.1988762468099594
  - 
    unique_id: 35
    type: 1
    name: "2017_Kia_Niro(HEV)"
    heading: -88.40300750732422
    velocity: 
      x: 50.92613220214844
      y: 0.030507221817970276
      z: 0.26613420248031616
    acceleration: 
      x: 0.8558064699172974
      y: 0.10999376326799393
      z: 0.019526775926351547
    size: 
      x: 4.355000019073486
      y: 1.8049999475479126
      z: 1.5449999570846558
    position: 
      x: 208.4573516845703
      y: 1728.792236328125
      z: -0.1768278181552887
  - 
    unique_id: 31
    type: 1
    name: "2017_Kia_Niro(HEV)"
    heading: -88.2654037475586
    velocity: 
      x: 57.676517486572266
      y: -0.006451398134231567
      z: 0.3200686573982239
    acceleration: 
      x: 0.29304638504981995
      y: -0.030989233404397964
      z: -0.01883181929588318
    size: 
      x: 4.355000019073486
      y: 1.8049999475479126
      z: 1.5449999570846558
    position: 
      x: 211.97776794433594
      y: 1675.106689453125
      z: -0.1205173134803772
pedestrian_list: []
obstacle_list: []
---
header: 
  seq: 1308
  stamp: 
    secs: 1696482701
    nsecs: 573000000
  frame_id: "ObjectInfo"
num_of_npcs: 4
num_of_pedestrian: 0
num_of_obstacle: 0
npc_list: 
  - 
    unique_id: 70
    type: 1
    name: "2017_Kia_Niro(HEV)"
    heading: -87.8919906616211
    velocity: 
      x: 55.853919982910156
      y: -0.012269794940948486
      z: 0.3100601136684418
    acceleration: 
      x: 0.3998222351074219
      y: -0.06763188540935516
      z: 0.031018828973174095
    size: 
      x: 4.355000019073486
      y: 1.8049999475479126
      z: 1.5449999570846558
    position: 
      x: 204.57427978515625
      y: 1759.2098388671875
      z: -0.20614799857139587
  - 
    unique_id: 25
    type: 1
    name: "2017_Kia_Niro(HEV)"
    heading: -88.23006439208984
    velocity: 
      x: 56.28639602661133
      y: -0.016708672046661377
      z: 0.3244883120059967
    acceleration: 
      x: -0.25145983695983887
      y: -0.05450103059411049
      z: -0.010943773202598095
    size: 
      x: 4.355000019073486
      y: 1.8049999475479126
      z: 1.5449999570846558
    position: 
      x: 200.9029083251953
      y: 1732.1033935546875
      z: -0.1983988732099533
  - 
    unique_id: 35
    type: 1
    name: "2017_Kia_Niro(HEV)"
    heading: -88.39092254638672
    velocity: 
      x: 50.98771667480469
      y: 0.027428075671195984
      z: 0.2655333876609802
    acceleration: 
      x: 0.8558875322341919
      y: 0.11149688810110092
      z: 0.028836609795689583
    size: 
      x: 4.355000019073486
      y: 1.8049999475479126
      z: 1.5449999570846558
    position: 
      x: 208.45901489257812
      y: 1728.39453125
      z: -0.17646078765392303
  - 
    unique_id: 31
    type: 1
    name: "2017_Kia_Niro(HEV)"
    heading: -88.26851654052734
    velocity: 
      x: 57.69738006591797
      y: -0.0064431726932525635
      z: 0.32191601395606995
    acceleration: 
      x: 0.2917059063911438
      y: -0.03581998124718666
      z: -0.024259749799966812
    size: 
      x: 4.355000019073486
      y: 1.8049999475479126
      z: 1.5449999570846558
    position: 
      x: 211.9808349609375
      y: 1674.6566162109375
      z: -0.1200028732419014
pedestrian_list: []
obstacle_list: []
---
header: 
  seq: 1309
  stamp: 
    secs: 1696482701
    nsecs: 758000000
  frame_id: "ObjectInfo"
num_of_npcs: 4
num_of_pedestrian: 0
num_of_obstacle: 0
npc_list: 
  - 
    unique_id: 70
    type: 1
    name: "2017_Kia_Niro(HEV)"
    heading: -87.89461517333984
    velocity: 
      x: 55.88229751586914
      y: -0.015095949172973633
      z: 0.31016942858695984
    acceleration: 
      x: 0.39691323041915894
      y: -0.07936771214008331
      z: 0.029232384636998177
    size: 
      x: 4.355000019073486
      y: 1.8049999475479126
      z: 1.5449999570846558
    position: 
      x: 204.57772827148438
      y: 1758.949462890625
      z: -0.20596954226493835
  - 
    unique_id: 25
    type: 1
    name: "2017_Kia_Niro(HEV)"
    heading: -88.2328109741211
    velocity: 
      x: 56.22882080078125
      y: -0.01749664545059204
      z: 0.3283461630344391
    acceleration: 
      x: -0.5670308470726013
      y: -0.05087992921471596
      z: -0.02580253966152668
    size: 
      x: 4.355000019073486
      y: 1.8049999475479126
      z: 1.5449999570846558
    position: 
      x: 200.90484619140625
      y: 1731.84130859375
      z: -0.19804747402668
  - 
    unique_id: 35
    type: 1
    name: "2017_Kia_Niro(HEV)"
    heading: -88.3836898803711
    velocity: 
      x: 51.04922866821289
      y: 0.028222188353538513
      z: 0.2659143805503845
    acceleration: 
      x: 0.8551006317138672
      y: 0.10608549416065216
      z: 0.02139202132821083
    size: 
      x: 4.355000019073486
      y: 1.8049999475479126
      z: 1.5449999570846558
    position: 
      x: 208.46005249023438
      y: 1728.15673828125
      z: -0.17623399198055267
  - 
    unique_id: 31
    type: 1
    name: "2017_Kia_Niro(HEV)"
    heading: -88.27062225341797
    velocity: 
      x: 57.71819305419922
      y: -0.007031559944152832
      z: 0.32094666361808777
    acceleration: 
      x: 0.2900487184524536
      y: -0.043591003865003586
      z: -0.02711370773613453
    size: 
      x: 4.355000019073486
      y: 1.8049999475479126
      z: 1.5449999570846558
    position: 
      x: 211.98269653320312
      y: 1674.3876953125
      z: -0.11971476674079895
pedestrian_list: []
obstacle_list: []
---
